{"type": "FeatureCollection", "features": [{"type": "Feature", "geometry": {"type": "Point", "coordinates": [172.6362, -43.5321]}, "properties": {"id": 1, "latitude": -43.532100, "longitude": 172.636200, "confidence": 0.950, "place_name": "Christchurch", "source_url": "https://www.rnz.co.nz/news/business/595686/contact-energy-boss-says-risk-of-new-zealand-running-out-of-power-this-winter-eases", "energy_type": "mixed", "extracted_at": "2026-06-01T11:44:30.009884+12:00", "article_title": "Contact Energy boss says risk of New Zealand running out of power this winter eases"}}, {"type": "Feature", "geometry": {"type": "Point", "coordinates": [171.1637, -43.7542]}, "properties": {"id": 2, "latitude": -43.754200, "longitude": 171.163700, "confidence": 0.950, "place_name": "Canterbury", "source_url": "https://nzherald.co.nz/author/kurt-bayer", "energy_type": "renewable", "extracted_at": "2026-06-01T11:44:30.009884+12:00", "article_title": "Latest from Kurt Bayer - NZ Herald"}}, {"type": "Feature", "geometry": {"type": "Point", "coordinates": [172.6362, -43.5321]}, "properties": {"id": 3, "latitude": -43.532100, "longitude": 172.636200, "confidence": 0.950, "place_name": "Christchurch", "source_url": "https://nzherald.co.nz/author/kurt-bayer", "energy_type": "renewable", "extracted_at": "2026-06-01T11:44:30.009884+12:00", "article_title": "Latest from Kurt Bayer - NZ Herald"}}, {"type": "Feature", "geometry": {"type": "Point", "coordinates": [174.7645, -36.8509]}, "properties": {"id": 4, "latitude": -36.850900, "longitude": 174.764500, "confidence": 0.950, "place_name": "Auckland", "source_url": "https://nzherald.co.nz/author/dan-ahwa", "energy_type": "renewable", "extracted_at": "2026-06-01T11:44:30.009884+12:00", "article_title": "Latest from Dan Ahwa - NZ Herald"}}, {"type": "Feature", "geometry": {"type": "Point", "coordinates": [174.7645, -36.8509]}, "properties": {"id": 5, "latitude": -36.850900, "longitude": 174.764500, "confidence": 0.950, "place_name": "Auckland", "source_url": "https://nzherald.co.nz/author/lane-nichols", "energy_type": "solar", "extracted_at": "2026-06-01T11:44:30.009884+12:00", "article_title": "Latest from Lane Nichols - NZ Herald"}}, {"type": "Feature", "geometry": {"type": "Point", "coordinates": [173.284, -41.2706]}, "properties": {"id": 6, "latitude": -41.270600, "longitude": 173.284000, "confidence": 0.950, "place_name": "Nelson", "source_url": "https://nzherald.co.nz/author/lane-nichols", "energy_type": "solar", "extracted_at": "2026-06-01T11:44:30.009884+12:00", "article_title": "Latest from Lane Nichols - NZ Herald"}}, {"type": "Feature", "geometry": {"type": "Point", "coordinates": [174.7645, -36.8509]}, "properties": {"id": 7, "latitude": -36.850900, "longitude": 174.764500, "confidence": 0.950, "place_name": "Auckland", "source_url": "https://nzherald.co.nz/author/sam-hurley", "energy_type": "wind", "extracted_at": "2026-06-01T11:44:30.009884+12:00", "article_title": "Latest from Sam Hurley - NZ Herald"}}, {"type": "Feature", "geometry": {"type": "Point", "coordinates": [175.0233, -37.6191]}, "properties": {"id": 8, "latitude": -37.619100, "longitude": 175.023300, "confidence": 0.950, "place_name": "Waikato", "source_url": "https://nzherald.co.nz/author/sam-hurley", "energy_type": "wind", "extracted_at": "2026-06-01T11:44:30.009884+12:00", "article_title": "Latest from Sam Hurley - NZ Herald"}}, {"type": "Feature", "geometry": {"type": "Point", "coordinates": [174.7645, -36.8509]}, "properties": {"id": 9, "latitude": -36.850900, "longitude": 174.764500, "confidence": 0.950, "place_name": "Auckland", "source_url": "https://nzherald.co.nz/author/eveline-harvey", "energy_type": "renewable", "extracted_at": "2026-06-01T11:44:30.009884+12:00", "article_title": "Latest from Eveline Harvey - NZ Herald"}}, {"type": "Feature", "geometry": {"type": "Point", "coordinates": [171.1637, -43.7542]}, "properties": {"id": 10, "latitude": -43.754200, "longitude": 171.163700, "confidence": 0.950, "place_name": "Canterbury", "source_url": "https://nzherald.co.nz/author/eveline-harvey", "energy_type": "renewable", "extracted_at": "2026-06-01T11:44:30.009884+12:00", "article_title": "Latest from Eveline Harvey - NZ Herald"}}, {"type": "Feature", "geometry": {"type": "Point", "coordinates": [169.6, -45.13]}, "properties": {"id": 11, "latitude": -45.130000, "longitude": 169.600000, "confidence": 0.950, "place_name": "Central Otago", "source_url": "https://nzherald.co.nz/author/eveline-harvey", "energy_type": "renewable", "extracted_at": "2026-06-01T11:44:30.009884+12:00", "article_title": "Latest from Eveline Harvey - NZ Herald"}}, {"type": "Feature", "geometry": {"type": "Point", "coordinates": [176.912, -39.4928]}, "properties": {"id": 12, "latitude": -39.492800, "longitude": 176.912000, "confidence": 0.950, "place_name": "Hawke's Bay", "source_url": "https://nzherald.co.nz/author/eveline-harvey", "energy_type": "renewable", "extracted_at": "2026-06-01T11:44:30.009884+12:00", "article_title": "Latest from Eveline Harvey - NZ Herald"}}, {"type": "Feature", "geometry": {"type": "Point", "coordinates": [176.912, -39.4928]}, "properties": {"id": 13, "latitude": -39.492800, "longitude": 176.912000, "confidence": 0.950, "place_name": "Napier", "source_url": "https://nzherald.co.nz/author/eveline-harvey", "energy_type": "renewable", "extracted_at": "2026-06-01T11:44:30.009884+12:00", "article_title": "Latest from Eveline Harvey - NZ Herald"}}, {"type": "Feature", "geometry": {"type": "Point", "coordinates": [170.1548, -45.4791]}, "properties": {"id": 14, "latitude": -45.479100, "longitude": 170.154800, "confidence": 0.950, "place_name": "Otago", "source_url": "https://nzherald.co.nz/author/eveline-harvey", "energy_type": "renewable", "extracted_at": "2026-06-01T11:44:30.009884+12:00", "article_title": "Latest from Eveline Harvey - NZ Herald"}}, {"type": "Feature", "geometry": {"type": "Point", "coordinates": [168.6626, -45.0312]}, "properties": {"id": 15, "latitude": -45.031200, "longitude": 168.662600, "confidence": 0.950, "place_name": "Queenstown", "source_url": "https://nzherald.co.nz/author/eveline-harvey", "energy_type": "renewable", "extracted_at": "2026-06-01T11:44:30.009884+12:00", "article_title": "Latest from Eveline Harvey - NZ Herald"}}, {"type": "Feature", "geometry": {"type": "Point", "coordinates": [174.7645, -36.8509]}, "properties": {"id": 16, "latitude": -36.850900, "longitude": 174.764500, "confidence": 0.950, "place_name": "Auckland", "source_url": "https://nzherald.co.nz/author/ophelia-buckleton", "energy_type": "solar", "extracted_at": "2026-06-01T11:44:30.009884+12:00", "article_title": "Latest from Ophelia Buckleton - NZ Herald"}}, {"type": "Feature", "geometry": {"type": "Point", "coordinates": [171.6912, -42.4064]}, "properties": {"id": 17, "latitude": -42.406400, "longitude": 171.691200, "confidence": 0.950, "place_name": "West Coast", "source_url": "https://nzherald.co.nz/author/ophelia-buckleton", "energy_type": "solar", "extracted_at": "2026-06-01T11:44:30.009884+12:00", "article_title": "Latest from Ophelia Buckleton - NZ Herald"}}, {"type": "Feature", "geometry": {"type": "Point", "coordinates": [174.7645, -36.8509]}, "properties": {"id": 18, "latitude": -36.850900, "longitude": 174.764500, "confidence": 0.950, "place_name": "Auckland", "source_url": "https://nzherald.co.nz/author/matt-nippert", "energy_type": "wind", "extracted_at": "2026-06-01T11:44:30.009884+12:00", "article_title": "Latest from Matt Nippert - NZ Herald"}}, {"type": "Feature", "geometry": {"type": "Point", "coordinates": [172.6362, -43.5321]}, "properties": {"id": 19, "latitude": -43.532100, "longitude": 172.636200, "confidence": 0.950, "place_name": "Christchurch", "source_url": "https://nzherald.co.nz/author/matt-nippert", "energy_type": "wind", "extracted_at": "2026-06-01T11:44:30.009884+12:00", "article_title": "Latest from Matt Nippert - NZ Herald"}}, {"type": "Feature", "geometry": {"type": "Point", "coordinates": [168.3538, -46.4132]}, "properties": {"id": 20, "latitude": -46.413200, "longitude": 168.353800, "confidence": 0.950, "place_name": "Invercargill", "source_url": "https://nzherald.co.nz/author/matt-nippert", "energy_type": "wind", "extracted_at": "2026-06-01T11:44:30.009884+12:00", "article_title": "Latest from Matt Nippert - NZ Herald"}}, {"type": "Feature", "geometry": {"type": "Point", "coordinates": [174.7762, -41.2865]}, "properties": {"id": 21, "latitude": -41.286500, "longitude": 174.776200, "confidence": 0.950, "place_name": "Wellington", "source_url": "https://nzherald.co.nz/author/matt-nippert", "energy_type": "wind", "extracted_at": "2026-06-01T11:44:30.009884+12:00", "article_title": "Latest from Matt Nippert - NZ Herald"}}, {"type": "Feature", "geometry": {"type": "Point", "coordinates": [176.912, -39.4928]}, "properties": {"id": 22, "latitude": -39.492800, "longitude": 176.912000, "confidence": 0.950, "place_name": "Hawke's Bay", "source_url": "https://nzherald.co.nz/author/roger-moroney", "energy_type": "solar", "extracted_at": "2026-06-01T11:44:30.009884+12:00", "article_title": "Latest from Roger Moroney - NZ Herald"}}, {"type": "Feature", "geometry": {"type": "Point", "coordinates": [176.912, -39.4928]}, "properties": {"id": 23, "latitude": -39.492800, "longitude": 176.912000, "confidence": 0.950, "place_name": "Napier", "source_url": "https://nzherald.co.nz/author/roger-moroney", "energy_type": "solar", "extracted_at": "2026-06-01T11:44:30.009884+12:00", "article_title": "Latest from Roger Moroney - NZ Herald"}}]}
